[
  {
    "_id": "53e4c2f8dc3e25c7b18a2928",
    "name": "Dorothea Small",
    "description": "ANOCHA",
    "phone": "+1 (846) 525-3144",
    "time": "2014-02-17T00:23:58 -08:00",
    "latitude": 43.875753,
    "longitude": 87.596999
  },
  {
    "_id": "53e4c2f8f809b1a578db7ebf",
    "name": "Ora Harrington",
    "description": "OMNIGOG",
    "phone": "+1 (959) 447-3582",
    "time": "2014-07-13T18:34:57 -08:00",
    "latitude": 43.365003,
    "longitude": 87.7123
  },
  {
    "_id": "53e4c2f8e4c9a4a5c26a7073",
    "name": "Newton Love",
    "description": "ANDERSHUN",
    "phone": "+1 (964) 469-2974",
    "time": "2014-01-19T21:59:25 -08:00",
    "latitude": 43.14465,
    "longitude": 87.995294
  },
  {
    "_id": "53e4c2f8ee2da3495f0a5593",
    "name": "Rosales Crane",
    "description": "MANTRO",
    "phone": "+1 (967) 531-3192",
    "time": "2014-03-01T20:41:17 -08:00",
    "latitude": 43.499051,
    "longitude": 87.010011
  },
  {
    "_id": "53e4c2f80aa7cc3bcf44fa62",
    "name": "Phillips Williamson",
    "description": "QUILCH",
    "phone": "+1 (979) 401-3153",
    "time": "2014-04-11T15:17:48 -08:00",
    "latitude": 43.31862,
    "longitude": 87.248497
  },
  {
    "_id": "53e4c2f8bcb85245460e1809",
    "name": "Santiago Nicholson",
    "description": "IMKAN",
    "phone": "+1 (805) 537-3844",
    "time": "2014-06-05T20:34:35 -08:00",
    "latitude": 43.134345,
    "longitude": 87.962867
  },
  {
    "_id": "53e4c2f8678f4fd7b2e00dbc",
    "name": "Phyllis Griffith",
    "description": "HARMONEY",
    "phone": "+1 (800) 415-3174",
    "time": "2014-01-07T13:03:02 -08:00",
    "latitude": 43.87014,
    "longitude": 87.938478
  },
  {
    "_id": "53e4c2f80e5413c699cbd921",
    "name": "Lynne Baker",
    "description": "EQUITAX",
    "phone": "+1 (800) 595-3733",
    "time": "2014-07-26T05:44:30 -08:00",
    "latitude": 43.495526,
    "longitude": 87.787349
  },
  {
    "_id": "53e4c2f82d9982023526cc3c",
    "name": "Joni Rodgers",
    "description": "ISOTERNIA",
    "phone": "+1 (832) 459-2574",
    "time": "2014-04-16T13:35:40 -08:00",
    "latitude": 43.109017,
    "longitude": 87.051494
  },
  {
    "_id": "53e4c2f8cd43540483875534",
    "name": "Jana Watkins",
    "description": "UNCORP",
    "phone": "+1 (976) 594-3986",
    "time": "2014-04-10T18:00:51 -08:00",
    "latitude": 43.825291,
    "longitude": 87.593385
  },
  {
    "_id": "53e4c2f82a7eaeb32a743afc",
    "name": "Maynard Richards",
    "description": "ECLIPSENT",
    "phone": "+1 (895) 520-2790",
    "time": "2014-05-06T08:13:46 -08:00",
    "latitude": 43.8057,
    "longitude": 87.616015
  },
  {
    "_id": "53e4c2f89116eb2bb6610e2a",
    "name": "Rena Valentine",
    "description": "BEZAL",
    "phone": "+1 (862) 450-2851",
    "time": "2014-03-29T20:20:57 -08:00",
    "latitude": 43.400016,
    "longitude": 87.478707
  },
  {
    "_id": "53e4c2f85ca05e6902b094d2",
    "name": "Cooley Hartman",
    "description": "OZEAN",
    "phone": "+1 (826) 511-2450",
    "time": "2014-03-22T02:25:02 -08:00",
    "latitude": 43.539889,
    "longitude": 87.447143
  },
  {
    "_id": "53e4c2f888e3c96e17082c87",
    "name": "Bridges Savage",
    "description": "ENVIRE",
    "phone": "+1 (868) 475-2555",
    "time": "2014-03-04T20:18:08 -08:00",
    "latitude": 43.28457,
    "longitude": 87.865732
  },
  {
    "_id": "53e4c2f862a0203102456288",
    "name": "Skinner Peters",
    "description": "ISOLOGIA",
    "phone": "+1 (869) 583-2164",
    "time": "2014-07-18T12:23:08 -08:00",
    "latitude": 43.424445,
    "longitude": 87.016038
  },
  {
    "_id": "53e4c2f822a399dc3c52004b",
    "name": "Naomi Green",
    "description": "ACCUPHARM",
    "phone": "+1 (807) 492-3728",
    "time": "2014-05-08T00:28:20 -08:00",
    "latitude": 43.348418,
    "longitude": 87.546128
  },
  {
    "_id": "53e4c2f834a9d5ca7bf09183",
    "name": "Ayers Strickland",
    "description": "BUGSALL",
    "phone": "+1 (856) 577-2282",
    "time": "2014-04-12T23:39:58 -08:00",
    "latitude": 43.284417,
    "longitude": 87.127135
  },
  {
    "_id": "53e4c2f8f09d94186406bd54",
    "name": "Wiggins Vazquez",
    "description": "SUNCLIPSE",
    "phone": "+1 (918) 496-2877",
    "time": "2014-07-19T05:06:28 -08:00",
    "latitude": 43.240226,
    "longitude": 87.776565
  },
  {
    "_id": "53e4c2f8fb9c5a2efbe0f7b8",
    "name": "Shelby Hoffman",
    "description": "ACRUEX",
    "phone": "+1 (841) 493-2762",
    "time": "2014-06-30T17:12:04 -08:00",
    "latitude": 43.068413,
    "longitude": 87.196529
  },
  {
    "_id": "53e4c2f8f329612715e88fc2",
    "name": "Lindsey Kent",
    "description": "VANTAGE",
    "phone": "+1 (941) 528-2740",
    "time": "2014-06-04T22:33:21 -08:00",
    "latitude": 43.582772,
    "longitude": 87.037065
  }
]